{
  "countries": [
      {
          "markerOffset": -25,
          "name": "Afghanistan",
          "coordinates": [
              67.709953,
              33.93911
          ]
      },
      {
          "markerOffset": -25,
          "name": "Albania",
          "coordinates": [
              20.168331,
              41.153332
          ]
      },
      {
          "markerOffset": -25,
          "name": "Algeria",
          "coordinates": [
              1.659626,
              28.033886
          ]
      },
      {
          "markerOffset": -25,
          "name": "Andorra",
          "coordinates": [
              1.601554,
              42.546245
          ]
      },
      {
          "markerOffset": -25,
          "name": "Angola",
          "coordinates": [
              17.873887,
              -11.202692
          ]
      },
      {
          "markerOffset": -25,
          "name": "Antigua and Barbuda",
          "coordinates": [
              -61.796428,
              17.060816
          ]
      },
      {
          "markerOffset": -25,
          "name": "Argentina",
          "coordinates": [
              -63.616672,
              -38.416097
          ]
      },
      {
          "markerOffset": -25,
          "name": "Armenia",
          "coordinates": [
              45.038189,
              40.069099
          ]
      },
      {
          "markerOffset": -25,
          "name": "Australia",
          "coordinates": [
              133.775136,
              -25.274398
          ]
      },
      {
          "markerOffset": -25,
          "name": "Austria",
          "coordinates": [
              14.550072,
              47.516231
          ]
      },
      {
          "markerOffset": -25,
          "name": "Azerbaijan",
          "coordinates": [
              47.576927,
              40.143105
          ]
      },
      {
          "markerOffset": -25,
          "name": "Bahamas",
          "coordinates": [
              -77.396279,
              25.03428
          ]
      },
      {
          "markerOffset": -25,
          "name": "Bahrain",
          "coordinates": [
              50.5577,
              26.0667
          ]
      },
      {
          "markerOffset": -25,
          "name": "Bangladesh",
          "coordinates": [
              90.356331,
              23.684994
          ]
      },
      {
          "markerOffset": -25,
          "name": "Barbados",
          "coordinates": [
              -59.543198,
              13.193887
          ]
      },
      {
          "markerOffset": -25,
          "name": "Belarus",
          "coordinates": [
              27.953389,
              53.709807
          ]
      },
      {
          "markerOffset": -25,
          "name": "Belgium",
          "coordinates": [
              4.469936,
              50.503887
          ]
      },
      {
          "markerOffset": -25,
          "name": "Belize",
          "coordinates": [
              -88.49765,
              17.189877
          ]
      },
      {
          "markerOffset": -25,
          "name": "Benin",
          "coordinates": [
              2.315834,
              9.30769
          ]
      },
      {
          "markerOffset": -25,
          "name": "Bhutan",
          "coordinates": [
              90.433601,
              27.514162
          ]
      },
      {
          "markerOffset": -25,
          "name": "Bolivia",
          "coordinates": [
              -63.588653,
              -16.290154
          ]
      },
      {
          "markerOffset": -25,
          "name": "Bosnia and Herzegovina",
          "coordinates": [
              17.679076,
              43.915886
          ]
      },
      {
          "markerOffset": -25,
          "name": "Botswana",
          "coordinates": [
              24.684866,
              -22.328474
          ]
      },
      {
          "markerOffset": -25,
          "name": "Brazil",
          "coordinates": [
              -51.92528,
              -14.235004
          ]
      },
      {
          "markerOffset": -25,
          "name": "Brunei",
          "coordinates": [
              114.727669,
              4.535277
          ]
      },
      {
          "markerOffset": -25,
          "name": "Bulgaria",
          "coordinates": [
              25.48583,
              42.733883
          ]
      },
      {
          "markerOffset": -25,
          "name": "Burkina Faso",
          "coordinates": [
              -1.561593,
              12.238333
          ]
      },
      {
          "markerOffset": -25,
          "name": "Burundi",
          "coordinates": [
              29.918886,
              -3.373056
          ]
      },
      {
          "markerOffset": -25,
          "name": "Cabo Verde",
          "coordinates": [
              -23.0418,
              15.1201
          ]
      },
      {
          "markerOffset": -25,
          "name": "Cambodia",
          "coordinates": [
              104.990963,
              12.565679
          ]
      },
      {
          "markerOffset": -25,
          "name": "Cameroon",
          "coordinates": [
              12.354722,
              7.369722
          ]
      },
      {
          "markerOffset": -25,
          "name": "Canada",
          "coordinates": [
              -106.346771,
              56.130366
          ]
      },
      {
          "markerOffset": -25,
          "name": "Central African Republic",
          "coordinates": [
              20.939444,
              6.611111
          ]
      },
      {
          "markerOffset": -25,
          "name": "Chad",
          "coordinates": [
              18.732207,
              15.454166
          ]
      },
      {
          "markerOffset": -25,
          "name": "Chile",
          "coordinates": [
              -71.542969,
              -35.675147
          ]
      },
      {
          "markerOffset": -25,
          "name": "China",
          "coordinates": [
              104.195397,
              35.86166
          ]
      },
      {
          "markerOffset": -25,
          "name": "Colombia",
          "coordinates": [
              -74.297333,
              4.570868
          ]
      },
      {
          "markerOffset": -25,
          "name": "Comoros",
          "coordinates": [
              43.872219,
              -11.875001
          ]
      },
      {
          "markerOffset": -25,
          "name": "Congo, Democratic Republic of the",
          "coordinates": [
              21.758664,
              -4.038333
          ]
      },
      {
          "markerOffset": -25,
          "name": "Congo, Republic of the",
          "coordinates": [
              15.827659,
              -0.228021
          ]
      },
      {
          "markerOffset": -25,
          "name": "Costa Rica",
          "coordinates": [
              -83.753428,
              9.748917
          ]
      },
      {
          "markerOffset": -25,
          "name": "Croatia",
          "coordinates": [
              15.2,
              45.1
          ]
      },
      {
          "markerOffset": -25,
          "name": "Cuba",
          "coordinates": [
              -77.781167,
              21.521757
          ]
      },
      {
          "markerOffset": -25,
          "name": "Cyprus",
          "coordinates": [
              33.429859,
              35.126413
          ]
      },
      {
          "markerOffset": -25,
          "name": "Czechia",
          "coordinates": [
              15.472962,
              49.817492
          ]
      },
      {
          "markerOffset": -25,
          "name": "Denmark",
          "coordinates": [
              9.501785,
              56.26392
          ]
      },
      {
          "markerOffset": -25,
          "name": "Djibouti",
          "coordinates": [
              42.590275,
              11.825138
          ]
      },
      {
          "markerOffset": -25,
          "name": "Dominica",
          "coordinates": [
              -61.370976,
              15.414999
          ]
      },
      {
          "markerOffset": -25,
          "name": "Dominican Republic",
          "coordinates": [
              -70.162651,
              18.735693
          ]
      },
      {
          "markerOffset": -25,
          "name": "Ecuador",
          "coordinates": [
              -78.183406,
              -1.831239
          ]
      },
      {
          "markerOffset": -25,
          "name": "Egypt",
          "coordinates": [
              30.802498,
              26.820553
          ]
      },
      {
          "markerOffset": -25,
          "name": "El Salvador",
          "coordinates": [
              -88.89653,
              13.794185
          ]
      },
      {
          "markerOffset": -25,
          "name": "Equatorial Guinea",
          "coordinates": [
              10.267895,
              1.650801
          ]
      },
      {
          "markerOffset": -25,
          "name": "Eritrea",
          "coordinates": [
              39.782334,
              15.179384
          ]
      },
      {
          "markerOffset": -25,
          "name": "Estonia",
          "coordinates": [
              25.013607,
              58.595272
          ]
      },
      {
          "markerOffset": -25,
          "name": "Eswatini",
          "coordinates": [
              31.465866,
              -26.522503
          ]
      },
      {
          "markerOffset": -25,
          "name": "Ethiopia",
          "coordinates": [
              39.782334,
              9.145
          ]
      },
      {
          "markerOffset": -25,
          "name": "Fiji",
          "coordinates": [
              178.065032,
              -17.713371
          ]
      },
      {
          "markerOffset": -25,
          "name": "Finland",
          "coordinates": [
              25.748151,
              61.92411
          ]
      },
      {
          "markerOffset": -25,
          "name": "France",
          "coordinates": [
              2.213749,
              46.603354
          ]
      },
      {
          "markerOffset": -25,
          "name": "Gabon",
          "coordinates": [
              11.609444,
              -0.803689
          ]
      },
      {
          "markerOffset": -25,
          "name": "Gambia",
          "coordinates": [
              -15.310139,
              13.443182
          ]
      },
      {
          "markerOffset": -25,
          "name": "Georgia",
          "coordinates": [
              43.356892,
              42.315407
          ]
      },
      {
          "markerOffset": -25,
          "name": "Germany",
          "coordinates": [
              10.451526,
              51.165691
          ]
      },
      {
          "markerOffset": -25,
          "name": "Ghana",
          "coordinates": [
              -1.023194,
              7.946527
          ]
      },
      {
          "markerOffset": -25,
          "name": "Greece",
          "coordinates": [
              21.824312,
              39.074208
          ]
      },
      {
          "markerOffset": -25,
          "name": "Grenada",
          "coordinates": [
              -61.604171,
              12.262776
          ]
      },
      {
          "markerOffset": -25,
          "name": "Guatemala",
          "coordinates": [
              -90.230759,
              15.783471
          ]
      },
      {
          "markerOffset": -25,
          "name": "Guinea",
          "coordinates": [
              -9.696645,
              9.945587
          ]
      },
      {
          "markerOffset": -25,
          "name": "Guinea-Bissau",
          "coordinates": [
              -15.180413,
              11.803749
          ]
      },
      {
          "markerOffset": -25,
          "name": "Guyana",
          "coordinates": [
              -58.93018,
              4.860416
          ]
      },
      {
          "markerOffset": -25,
          "name": "Haiti",
          "coordinates": [
              -72.285215,
              18.971187
          ]
      },
      {
          "markerOffset": -25,
          "name": "Honduras",
          "coordinates": [
              -86.241905,
              15.199999
          ]
      },
      {
          "markerOffset": -25,
          "name": "Hungary",
          "coordinates": [
              19.503304,
              47.162494
          ]
      },
      {
          "markerOffset": -25,
          "name": "Iceland",
          "coordinates": [
              -19.020835,
              64.963051
          ]
      },
      {
          "markerOffset": -25,
          "name": "India",
          "coordinates": [
              78.96288,
              20.593684
          ]
      },
      {
          "markerOffset": -25,
          "name": "Indonesia",
          "coordinates": [
              113.921327,
              -0.789275
          ]
      },
      {
          "markerOffset": -25,
          "name": "Iran",
          "coordinates": [
              53.688046,
              32.427908
          ]
      },
      {
          "markerOffset": -25,
          "name": "Iraq",
          "coordinates": [
              43.679291,
              33.223191
          ]
      },
      {
          "markerOffset": -25,
          "name": "Ireland",
          "coordinates": [
              -8.24389,
              53.41291
          ]
      },
      {
          "markerOffset": -25,
          "name": "Israel",
          "coordinates": [
              34.851612,
              31.046051
          ]
      },
      {
          "markerOffset": -25,
          "name": "Italy",
          "coordinates": [
              12.56738,
              41.87194
          ]
      },
      {
          "markerOffset": -25,
          "name": "Jamaica",
          "coordinates": [
              -77.297508,
              18.109581
          ]
      },
      {
          "markerOffset": -25,
          "name": "Japan",
          "coordinates": [
              138.252924,
              36.204824
          ]
      },
      {
          "markerOffset": -25,
          "name": "Jordan",
          "coordinates": [
              36.238414,
              30.585164
          ]
      },
      {
          "markerOffset": -25,
          "name": "Kazakhstan",
          "coordinates": [
              66.923684,
              48.019573
          ]
      },
      {
          "markerOffset": -25,
          "name": "Kenya",
          "coordinates": [
              37.906193,
              -1.292066
          ]
      },
      {
          "markerOffset": -25,
          "name": "Kiribati",
          "coordinates": [
              -168.734039,
              -3.370417
          ]
      },
      {
          "markerOffset": -25,
          "name": "Korea, North",
          "coordinates": [
              127.510093,
              40.339852
          ]
      },
      {
          "markerOffset": -25,
          "name": "Korea, South",
          "coordinates": [
              127.766922,
              35.907757
          ]
      },
      {
          "markerOffset": -25,
          "name": "Kosovo",
          "coordinates": [
              20.902977,
              42.602636
          ]
      },
      {
          "markerOffset": -25,
          "name": "Kuwait",
          "coordinates": [
              47.481766,
              29.31166
          ]
      },
      {
          "markerOffset": -25,
          "name": "Kyrgyzstan",
          "coordinates": [
              74.766098,
              41.20438
          ]
      },
      {
          "markerOffset": -25,
          "name": "Laos",
          "coordinates": [
              102.495496,
              19.85627
          ]
      },
      {
          "markerOffset": -25,
          "name": "Latvia",
          "coordinates": [
              24.603189,
              56.879635
          ]
      },
      {
          "markerOffset": -25,
          "name": "Lebanon",
          "coordinates": [
              35.862285,
              33.854721
          ]
      },
      {
          "markerOffset": -25,
          "name": "Lesotho",
          "coordinates": [
              28.233608,
              -29.609988
          ]
      },
      {
          "markerOffset": -25,
          "name": "Liberia",
          "coordinates": [
              -9.429499,
              6.428055
          ]
      },
      {
          "markerOffset": -25,
          "name": "Libya",
          "coordinates": [
              17.228331,
              26.3351
          ]
      },
      {
          "markerOffset": -25,
          "name": "Liechtenstein",
          "coordinates": [
              9.555373,
              47.166
          ]
      },
      {
          "markerOffset": -25,
          "name": "Lithuania",
          "coordinates": [
              23.881275,
              55.169438
          ]
      },
      {
          "markerOffset": -25,
          "name": "Luxembourg",
          "coordinates": [
              6.129583,
              49.815273
          ]
      },
      {
          "markerOffset": -25,
          "name": "Madagascar",
          "coordinates": [
              46.869107,
              -18.766947
          ]
      },
      {
          "markerOffset": -25,
          "name": "Malawi",
          "coordinates": [
              34.301525,
              -13.254308
          ]
      },
      {
          "markerOffset": -25,
          "name": "Malaysia",
          "coordinates": [
              101.975766,
              4.210484
          ]
      },
      {
          "markerOffset": -25,
          "name": "Maldives",
          "coordinates": [
              73.22068,
              3.202778
          ]
      },
      {
          "markerOffset": -25,
          "name": "Mali",
          "coordinates": [
              -3.996166,
              17.570692
          ]
      },
      {
          "markerOffset": -25,
          "name": "Malta",
          "coordinates": [
              14.375416,
              35.937496
          ]
      },
      {
          "markerOffset": -25,
          "name": "Marshall Islands",
          "coordinates": [
              171.184478,
              7.131474
          ]
      },
      {
          "markerOffset": -25,
          "name": "Mauritania",
          "coordinates": [
              -10.940835,
              21.00789
          ]
      },
      {
          "markerOffset": -25,
          "name": "Mauritius",
          "coordinates": [
              57.552152,
              -20.348404
          ]
      },
      {
          "markerOffset": -25,
          "name": "Mexico",
          "coordinates": [
              -102.552784,
              23.634501
          ]
      },
      {
          "markerOffset": -25,
          "name": "Micronesia",
          "coordinates": [
              150.550812,
              7.425554
          ]
      },
      {
          "markerOffset": -25,
          "name": "Moldova",
          "coordinates": [
              28.369885,
              47.411631
          ]
      },
      {
          "markerOffset": -25,
          "name": "Monaco",
          "coordinates": [
              7.412841,
              43.750298
          ]
      },
      {
          "markerOffset": -25,
          "name": "Mongolia",
          "coordinates": [
              103.846656,
              46.862496
          ]
      },
      {
          "markerOffset": -25,
          "name": "Montenegro",
          "coordinates": [
              19.37439,
              42.708678
          ]
      },
      {
          "markerOffset": -25,
          "name": "Morocco",
          "coordinates": [
              -7.09262,
              31.791702
          ]
      },
      {
          "markerOffset": -25,
          "name": "Mozambique",
          "coordinates": [
              35.529562,
              -18.665695
          ]
      },
      {
          "markerOffset": -25,
          "name": "Myanmar",
          "coordinates": [
              95.956223,
              21.913965
          ]
      },
      {
          "markerOffset": -25,
          "name": "Namibia",
          "coordinates": [
              18.49041,
              -22.95764
          ]
      },
      {
          "markerOffset": -25,
          "name": "Nauru",
          "coordinates": [
              166.931503,
              -0.522778
          ]
      },
      {
          "markerOffset": -25,
          "name": "Nepal",
          "coordinates": [
              84.124008,
              28.394857
          ]
      },
      {
          "markerOffset": -25,
          "name": "Netherlands",
          "coordinates": [
              5.291266,
              52.132633
          ]
      },
      {
          "markerOffset": -25,
          "name": "New Zealand",
          "coordinates": [
              174.885971,
              -40.900557
          ]
      },
      {
          "markerOffset": -25,
          "name": "Nicaragua",
          "coordinates": [
              -85.207229,
              12.865416
          ]
      },
      {
          "markerOffset": -25,
          "name": "Niger",
          "coordinates": [
              8.081666,
              17.607789
          ]
      },
      {
          "markerOffset": -25,
          "name": "Nigeria",
          "coordinates": [
              8.675277,
              9.081999
          ]
      },
      {
          "markerOffset": -25,
          "name": "North Macedonia",
          "coordinates": [
              21.745275,
              41.608635
          ]
      },
      {
          "markerOffset": -25,
          "name": "Norway",
          "coordinates": [
              8.468946,
              60.472024
          ]
      },
      {
          "markerOffset": -25,
          "name": "Oman",
          "coordinates": [
              55.923255,
              21.512583
          ]
      },
      {
          "markerOffset": -25,
          "name": "Pakistan",
          "coordinates": [
              69.345116,
              30.375321
          ]
      },
      {
          "markerOffset": -25,
          "name": "Palau",
          "coordinates": [
              134.58252,
              7.51498
          ]
      },
      {
          "markerOffset": -25,
          "name": "Palestine",
          "coordinates": [
              35.233154,
              31.952162
          ]
      },
      {
          "markerOffset": -25,
          "name": "Panama",
          "coordinates": [
              -80.782127,
              8.537981
          ]
      },
      {
          "markerOffset": -25,
          "name": "Papua New Guinea",
          "coordinates": [
              143.95555,
              -6.314993
          ]
      },
      {
          "markerOffset": -25,
          "name": "Paraguay",
          "coordinates": [
              -58.443832,
              -23.442503
          ]
      },
      {
          "markerOffset": -25,
          "name": "Peru",
          "coordinates": [
              -75.015152,
              -9.189967
          ]
      },
      {
          "markerOffset": -25,
          "name": "Philippines",
          "coordinates": [
              121.774017,
              12.879721
          ]
      },
      {
          "markerOffset": -25,
          "name": "Poland",
          "coordinates": [
              19.145136,
              51.919438
          ]
      },
      {
          "markerOffset": -25,
          "name": "Portugal",
          "coordinates": [
              -8.224454,
              39.399872
          ]
      },
      {
          "markerOffset": -25,
          "name": "Qatar",
          "coordinates": [
              51.183884,
              25.354826
          ]
      },
      {
          "markerOffset": -25,
          "name": "Romania",
          "coordinates": [
              24.96676,
              45.943161
          ]
      },
      {
          "markerOffset": -25,
          "name": "Russia",
          "coordinates": [
              105.318756,
              61.52401
          ]
      },
      {
          "markerOffset": -25,
          "name": "Rwanda",
          "coordinates": [
              29.873888,
              -1.940278
          ]
      },
      {
          "markerOffset": -25,
          "name": "Saint Kitts and Nevis",
          "coordinates": [
              -62.782998,
              17.357822
          ]
      },
      {
          "markerOffset": -25,
          "name": "Saint Lucia",
          "coordinates": [
              -60.978893,
              13.909444
          ]
      },
      {
          "markerOffset": -25,
          "name": "Saint Vincent and the Grenadines",
          "coordinates": [
              -61.287228,
              12.984305
          ]
      },
      {
          "markerOffset": -25,
          "name": "Samoa",
          "coordinates": [
              -172.104629,
              -13.759029
          ]
      },
      {
          "markerOffset": -25,
          "name": "San Marino",
          "coordinates": [
              12.457777,
              43.94236
          ]
      },
      {
          "markerOffset": -25,
          "name": "Sao Tome and Principe",
          "coordinates": [
              6.613081,
              0.18636
          ]
      },
      {
          "markerOffset": -25,
          "name": "Saudi Arabia",
          "coordinates": [
              45.079162,
              23.885942
          ]
      },
      {
          "markerOffset": -25,
          "name": "Senegal",
          "coordinates": [
              -14.452362,
              14.497401
          ]
      },
      {
          "markerOffset": -25,
          "name": "Serbia",
          "coordinates": [
              21.005859,
              44.016521
          ]
      },
      {
          "markerOffset": -25,
          "name": "Seychelles",
          "coordinates": [
              55.491977,
              -4.679574
          ]
      },
      {
          "markerOffset": -25,
          "name": "Sierra Leone",
          "coordinates": [
              -11.779889,
              8.460555
          ]
      },
      {
          "markerOffset": -25,
          "name": "Singapore",
          "coordinates": [
              103.819836,
              1.352083
          ]
      },
      {
          "markerOffset": -25,
          "name": "Slovakia",
          "coordinates": [
              19.699024,
              48.669026
          ]
      },
      {
          "markerOffset": -25,
          "name": "Slovenia",
          "coordinates": [
              14.995463,
              46.151241
          ]
      },
      {
          "markerOffset": -25,
          "name": "Solomon Islands",
          "coordinates": [
              160.156194,
              -9.64571
          ]
      },
      {
          "markerOffset": -25,
          "name": "Somalia",
          "coordinates": [
              46.199616,
              5.152149
          ]
      },
      {
          "markerOffset": -25,
          "name": "South Africa",
          "coordinates": [
              22.937506,
              -30.559482
          ]
      },
      {
          "markerOffset": -25,
          "name": "South Sudan",
          "coordinates": [
              31.306978,
              6.876991
          ]
      },
      {
          "markerOffset": -25,
          "name": "Spain",
          "coordinates": [
              -3.74922,
              40.463667
          ]
      },
      {
          "markerOffset": -25,
          "name": "Sri Lanka",
          "coordinates": [
              80.771797,
              7.873054
          ]
      },
      {
          "markerOffset": -25,
          "name": "Sudan",
          "coordinates": [
              30.217636,
              12.862807
          ]
      },
      {
          "markerOffset": -25,
          "name": "Suriname",
          "coordinates": [
              -56.027783,
              3.919305
          ]
      },
      {
          "markerOffset": -25,
          "name": "Sweden",
          "coordinates": [
              18.643501,
              60.128161
          ]
      },
      {
          "markerOffset": -25,
          "name": "Switzerland",
          "coordinates": [
              8.227512,
              46.818188
          ]
      },
      {
          "markerOffset": -25,
          "name": "Syria",
          "coordinates": [
              38.996815,
              34.802075
          ]
      },
      {
          "markerOffset": -25,
          "name": "Taiwan",
          "coordinates": [
              120.960515,
              23.69781
          ]
      },
      {
          "markerOffset": -25,
          "name": "Tajikistan",
          "coordinates": [
              71.276093,
              38.861034
          ]
      },
      {
          "markerOffset": -25,
          "name": "Tanzania",
          "coordinates": [
              34.888822,
              -6.369028
          ]
      },
      {
          "markerOffset": -25,
          "name": "Thailand",
          "coordinates": [
              100.992541,
              15.870032
          ]
      },
      {
          "markerOffset": -25,
          "name": "Timor-Leste",
          "coordinates": [
              125.727539,
              -8.874217
          ]
      },
      {
          "markerOffset": -25,
          "name": "Togo",
          "coordinates": [
              0.824782,
              8.619543
          ]
      },
      {
          "markerOffset": -25,
          "name": "Tonga",
          "coordinates": [
              -175.198242,
              -21.178986
          ]
      },
      {
          "markerOffset": -25,
          "name": "Trinidad and Tobago",
          "coordinates": [
              -61.222503,
              10.691803
          ]
      },
      {
          "markerOffset": -25,
          "name": "Tunisia",
          "coordinates": [
              9.537499,
              33.886917
          ]
      },
      {
          "markerOffset": -25,
          "name": "Turkey",
          "coordinates": [
              35.243322,
              38.963745
          ]
      },
      {
          "markerOffset": -25,
          "name": "Turkmenistan",
          "coordinates": [
              59.556278,
              38.969719
          ]
      },
      {
          "markerOffset": -25,
          "name": "Tuvalu",
          "coordinates": [
              179.194,
              -7.109535
          ]
      },
      {
          "markerOffset": -25,
          "name": "Uganda",
          "coordinates": [
              32.290275,
              1.373333
          ]
      },
      {
          "markerOffset": -25,
          "name": "Ukraine",
          "coordinates": [
              31.16558,
              48.379433
          ]
      },
      {
          "markerOffset": -25,
          "name": "United Arab Emirates",
          "coordinates": [
              53.847818,
              23.424076
          ]
      },
      {
          "markerOffset": -25,
          "name": "United Kingdom",
          "coordinates": [
              -3.435973,
              55.378051
          ]
      },
      {
          "markerOffset": -25,
          "name": "United States",
          "coordinates": [
              -95.712891,
              37.09024
          ]
      },
      {
          "markerOffset": -25,
          "name": "Uruguay",
          "coordinates": [
              -55.765835,
              -32.522779
          ]
      },
      {
          "markerOffset": -25,
          "name": "Uzbekistan",
          "coordinates": [
              64.585262,
              41.377491
          ]
      },
      {
          "markerOffset": -25,
          "name": "Vanuatu",
          "coordinates": [
              166.959158,
              -15.376706
          ]
      },
      {
          "markerOffset": -25,
          "name": "Vatican City",
          "coordinates": [
              12.453389,
              41.902916
          ]
      },
      {
          "markerOffset": -25,
          "name": "Venezuela",
          "coordinates": [
              -66.58973,
              6.42375
          ]
      },
      {
          "markerOffset": -25,
          "name": "Vietnam",
          "coordinates": [
              108.277199,
              14.058324
          ]
      },
      {
          "markerOffset": -25,
          "name": "Yemen",
          "coordinates": [
              48.516388,
              15.552727
          ]
      },
      {
          "markerOffset": -25,
          "name": "Zambia",
          "coordinates": [
              27.849332,
              -13.133897
          ]
      },
      {
          "markerOffset": -25,
          "name": "Zimbabwe",
          "coordinates": [
              29.154857,
              -19.015438
          ]
      }
  ]
}